,City,Lat,Lng,Max temp,Humidity,Cloudiness,Wind Speed,Country,Date
0,morgan city,29.7,-91.21,53.01,76,90,5.82,US,1607274746
1,angoche,-16.23,39.91,80.83,75,91,8.37,MZ,1607274747
2,sao jose da coroa grande,-8.9,-35.15,81.32,66,66,11.79,BR,1607274747
3,bengkulu,-3.8,102.27,76.32,87,100,4.36,ID,1607274748
4,punta arenas,-53.15,-70.92,64.4,55,75,25.28,CL,1607274748
5,saskylakh,71.92,114.08,-10.01,89,100,9.42,RU,1607274579
6,kozmodemyansk,56.34,46.57,10.4,72,0,8.95,RU,1607274748
7,la plata,-34.92,-57.95,73.0,42,0,1.99,AR,1607274619
8,visaginas,55.6,26.42,29.17,88,0,15.26,LT,1607274748
9,albany,42.6,-73.97,33.01,53,4,1.99,US,1607274748
10,bonavista,48.65,-53.11,39.99,100,100,2.24,CA,1607274748
11,puerto ayora,-0.74,-90.35,80.6,65,75,10.29,EC,1607274650
12,hambantota,6.12,81.12,78.75,83,90,7.87,LK,1607274749
13,mataura,-46.19,168.86,55.99,80,0,3.0,NZ,1607274749
14,jamestown,42.1,-79.24,30.0,74,90,9.17,US,1607274017
15,severo-kurilsk,50.68,156.12,27.12,89,84,17.49,RU,1607274452
16,mazagao,-0.12,-51.29,93.2,52,40,12.75,BR,1607274749
17,kazanskaya,45.41,40.44,27.09,88,11,22.75,RU,1607274749
18,mar del plata,-38.0,-57.56,75.2,33,0,9.17,AR,1607274750
19,saint-philippe,-21.36,55.77,78.8,74,75,2.24,RE,1607274750
20,cape town,-33.93,18.42,77.0,50,0,19.46,ZA,1607274724
21,ushuaia,-54.8,-68.3,53.6,71,75,13.87,AR,1607274745
22,nemuro,43.32,145.57,37.98,77,58,9.08,JP,1607274750
23,haines junction,60.75,-137.51,6.8,92,100,1.12,CA,1607274750
24,tabou,4.42,-7.35,81.97,74,13,8.12,CI,1607274750
25,cidreira,-30.18,-50.21,66.06,79,100,14.09,BR,1607274733
26,port lincoln,-34.73,135.87,57.85,72,55,17.36,AU,1607274751
27,kahului,20.89,-156.47,69.01,82,1,3.36,US,1607274663
28,touros,-5.2,-35.46,84.2,66,75,18.34,BR,1607274751
29,half moon bay,37.46,-122.43,52.0,100,90,4.7,US,1607274751
30,castro,-24.79,-50.01,60.69,96,100,7.07,BR,1607274751
31,omboue,-1.57,9.26,78.33,87,95,7.81,GA,1607274751
32,college,64.86,-147.8,-9.4,69,40,8.05,US,1607274752
33,upernavik,72.79,-56.15,27.3,98,100,18.72,GL,1607274752
34,baltasi,56.35,50.21,12.2,90,0,9.15,RU,1607274752
35,tura,25.52,90.22,60.91,77,1,3.51,IN,1607274752
36,bluff,-46.6,168.33,55.99,80,57,3.0,NZ,1607274752
37,port hedland,-20.32,118.57,82.4,54,33,8.05,AU,1607274494
38,le portel,50.71,1.58,35.6,93,57,1.12,FR,1607274753
39,narsaq,60.92,-46.05,28.4,79,75,5.5,GL,1607274753
40,mbandaka,0.05,18.26,78.76,77,83,4.56,CD,1607274753
41,presidencia roque saenz pena,-26.79,-60.44,84.99,40,0,3.0,AR,1607274753
42,longyearbyen,78.22,15.64,21.2,67,75,29.97,SJ,1607274753
43,thompson,55.74,-97.86,14.0,92,90,3.36,CA,1607274753
44,bredasdorp,-34.53,20.04,68.0,72,100,20.8,ZA,1607274753
45,port alfred,-33.59,26.89,68.85,86,99,26.02,ZA,1607274754
46,cambridge,43.36,-80.31,28.99,79,90,10.29,CA,1607274681
47,siavonga,-16.54,28.71,77.02,83,100,7.52,ZM,1607274754
48,qaanaaq,77.48,-69.36,-3.32,71,99,3.33,GL,1607274754
49,arraial do cabo,-22.97,-42.03,78.8,78,75,16.11,BR,1607274563
50,plettenberg bay,-34.05,23.37,68.18,79,53,22.08,ZA,1607274755
51,broome,42.25,-75.83,30.0,73,90,13.87,US,1607274755
52,chokurdakh,70.63,147.92,-28.57,83,1,2.93,RU,1607274521
53,rikitea,-23.12,-134.97,76.12,77,8,15.84,PF,1607274756
54,zabaykalsk,49.63,117.32,2.84,87,1,14.56,RU,1607274756
55,busselton,-33.65,115.33,54.0,88,0,1.99,AU,1607274741
56,asau,46.43,26.4,33.01,14,100,4.54,RO,1607274756
57,opuwo,-18.06,13.84,84.16,14,0,18.28,NA,1607274757
58,kropotkin,45.44,40.58,27.21,88,9,22.82,RU,1607274757
59,lombardia,19.15,-102.03,64.4,72,90,3.04,MX,1607274757
60,chapais,49.78,-74.85,14.0,85,90,11.41,CA,1607274757
61,vigrestad,58.57,5.7,41.0,76,0,3.36,NO,1607274758
62,thung song,8.16,99.68,71.91,85,94,2.91,TH,1607274758
63,moron,-34.65,-58.62,77.0,30,0,4.0,AR,1607274700
64,east london,-33.02,27.91,68.0,94,90,18.34,ZA,1607274501
65,san ignacio,17.16,-89.07,80.01,83,75,6.93,BZ,1607274758
66,hithadhoo,-0.6,73.08,82.8,78,72,18.81,MV,1607274662
67,cabra,37.47,-4.44,46.0,82,97,1.01,ES,1607274759
68,port blair,11.67,92.75,79.63,76,88,9.95,IN,1607274759
69,praia,14.92,-23.51,80.6,51,20,17.22,CV,1607274759
70,hobart,-42.88,147.33,48.2,70,69,13.87,AU,1607274540
71,horadiz,39.45,47.34,41.0,86,90,9.17,AZ,1607274759
72,kieta,-6.22,155.63,79.0,78,88,1.07,PG,1607274759
73,luganville,-15.53,167.17,77.18,82,87,1.12,VU,1607274759
74,gashua,12.87,11.05,84.99,16,73,6.78,NG,1607274760
75,yellowknife,62.46,-114.35,25.0,92,90,9.17,CA,1607274760
76,aykhal,66.0,111.5,-5.8,83,90,8.95,RU,1607274760
77,hilo,19.73,-155.09,71.6,73,75,8.05,US,1607274760
78,rocha,-34.48,-54.33,68.09,50,16,11.32,UY,1607274626
79,penon blanco,24.79,-104.04,45.73,54,0,4.72,MX,1607274760
80,birao,10.28,22.79,80.64,18,6,5.44,CF,1607274760
81,ravar,31.27,56.81,48.88,83,100,4.65,IR,1607274761
82,derzhavinsk,51.1,66.32,-5.15,89,3,4.0,KZ,1607274761
83,dunedin,-45.87,170.5,54.0,85,3,1.01,NZ,1607274695
84,vaini,-21.2,-175.2,77.0,94,40,6.93,TO,1607274761
85,malpe,13.35,74.72,82.4,69,40,8.57,IN,1607274761
86,avarua,-21.21,-159.78,78.8,88,76,12.75,CK,1607274761
87,codrington,-38.27,141.97,47.21,79,79,14.27,AU,1607274762
88,gurupi,-11.73,-49.07,92.86,42,85,6.29,BR,1607274762
89,vila velha,-20.33,-40.29,86.0,62,20,18.34,BR,1607274762
90,tasiilaq,65.61,-37.64,24.8,85,100,5.12,GL,1607274762
91,bereda,43.27,-7.54,46.99,100,100,5.01,ES,1607274762
92,tuktoyaktuk,69.45,-133.04,3.2,77,40,14.99,CA,1607274762
93,new norfolk,-42.78,147.06,46.99,81,67,1.99,AU,1607274762
94,dikson,73.51,80.55,2.26,88,32,7.7,RU,1607274762
95,mount gambier,-37.83,140.77,48.2,87,40,11.41,AU,1607274763
96,khatanga,71.97,102.5,-3.39,92,100,8.75,RU,1607274763
97,louis trichardt,-23.04,29.9,64.62,83,93,2.3,ZA,1607274763
98,copiapo,-27.37,-70.33,60.8,72,75,6.93,CL,1607274763
99,vryheid,-27.77,30.79,66.49,71,38,2.13,ZA,1607274764
100,fairbanks,64.84,-147.72,-9.4,69,40,8.05,US,1607274498
101,yar-sale,66.83,70.83,20.37,94,98,16.51,RU,1607274764
102,buraydah,26.33,43.98,62.6,63,0,9.17,SA,1607274604
103,fujin,47.26,132.03,10.17,95,23,6.04,CN,1607274569
104,batetskiy,58.65,30.3,31.06,85,0,11.68,RU,1607274764
105,leningradskiy,69.38,178.42,15.82,87,100,5.03,RU,1607274764
106,alta floresta,-9.88,-56.09,89.38,56,100,3.94,BR,1607274765
107,peddapalli,18.62,79.37,67.66,50,47,2.86,IN,1607274765
108,alexandria,31.22,29.96,66.2,59,0,4.7,EG,1607274518
109,north bend,43.41,-124.22,46.0,100,90,8.05,US,1607274765
110,lebu,-37.62,-73.65,61.21,70,2,12.17,CL,1607274630
111,pyatovskiy,54.69,36.06,19.4,67,0,6.71,RU,1607274765
112,kodiak,57.79,-152.41,37.4,93,90,16.11,US,1607274765
113,saldanha,-33.01,17.94,69.8,56,5,6.93,ZA,1607274766
114,maceio,-9.67,-35.74,86.0,58,40,14.99,BR,1607274766
115,san cristobal,7.77,-72.22,84.2,66,20,9.17,VE,1607274593
116,yiyang,28.59,112.33,42.82,88,99,8.1,CN,1607274766
117,bambous virieux,-20.34,57.76,79.0,78,40,4.7,MU,1607274480
118,rakitovo,41.98,24.08,48.99,93,90,13.87,BG,1607274767
119,mount pleasant,32.79,-79.86,62.01,67,1,5.82,US,1607274570
120,hecelchakan,20.17,-90.13,77.0,94,75,6.93,MX,1607274767
121,caravelas,-17.71,-39.25,84.4,57,54,11.59,BR,1607274767
122,yulara,-25.24,130.99,71.6,49,85,6.93,AU,1607274767
123,vyazma,55.21,34.3,19.18,93,31,8.86,RU,1607274767
124,esperance,-33.87,121.9,59.0,72,90,6.93,AU,1607274767
125,shellbrook,53.22,-106.4,6.8,92,40,4.7,CA,1607274768
126,mitsamiouli,-11.38,43.28,82.18,72,16,9.93,KM,1607274768
127,carnarvon,-24.87,113.63,73.4,73,0,21.92,AU,1607274768
128,yabrud,33.97,36.66,53.6,76,40,12.75,SY,1607274768
129,qaqortoq,60.72,-46.03,28.4,79,75,5.41,GL,1607274768
130,san jose,37.34,-121.89,50.0,93,90,3.36,US,1607274763
131,pevek,69.7,170.31,-1.77,91,89,1.23,RU,1607274606
132,airai,-8.93,125.41,62.83,100,100,0.96,TL,1607274769
133,kaifeng,34.79,114.35,41.0,80,100,4.47,CN,1607274769
134,bathsheba,13.22,-59.52,86.0,66,40,17.22,BB,1607274769
135,atuona,-9.8,-139.03,78.73,74,7,17.52,PF,1607274769
136,katsuura,35.13,140.3,48.2,81,20,4.7,JP,1607274682
137,lagoa,39.05,-27.98,60.22,70,45,12.21,PT,1607274770
138,laguna,38.42,-121.42,46.99,75,1,3.36,US,1607274770
139,sao filipe,14.9,-24.5,75.2,75,18,11.07,CV,1607274770
140,luderitz,-26.65,15.16,64.45,71,0,20.74,NA,1607274770
141,iqaluit,63.75,-68.51,10.4,78,40,13.87,CA,1607274770
142,husavik,66.04,-17.34,15.8,78,0,3.36,IS,1607274770
143,lovozero,68.0,35.01,24.66,93,100,4.74,RU,1607274771
144,oranjemund,-28.55,16.43,65.3,75,46,12.15,NA,1607274771
145,batticaloa,7.71,81.69,79.02,87,71,12.19,LK,1607274771
146,ancud,-41.87,-73.82,70.0,56,0,6.93,CL,1607274771
147,adra,36.75,-3.02,57.2,30,0,13.87,ES,1607274771
148,kabanjahe,3.1,98.49,77.0,100,40,3.36,ID,1607274772
149,clyde river,70.47,-68.59,5.0,84,90,6.93,CA,1607274772
150,hermanus,-34.42,19.23,69.01,77,57,11.01,ZA,1607274772
151,vrangel,42.73,133.08,31.78,85,24,17.0,RU,1607274772
152,haukipudas,65.18,25.35,36.0,100,90,8.05,FI,1607274772
153,smithers,54.78,-127.17,39.2,80,75,6.93,CA,1607274772
154,ailigandi,9.23,-78.02,83.14,74,26,8.16,PA,1607274772
155,kyzyl-suu,42.34,78.01,24.76,80,46,8.16,KG,1607274773
156,mareeba,-17.0,145.43,73.4,88,30,2.37,AU,1607274773
157,puro,12.48,123.38,80.01,85,100,7.0,PH,1607274773
158,hami,42.8,93.45,18.21,83,22,4.21,CN,1607274773
159,daru,-9.08,143.21,79.3,87,100,4.25,PG,1607274773
160,tiebissou,7.16,-5.23,89.6,59,75,4.7,CI,1607274773
161,nouadhibou,20.93,-17.03,77.0,44,61,17.22,MR,1607274773
162,faanui,-16.48,-151.75,80.55,73,67,8.14,PF,1607274774
163,provideniya,64.38,-173.3,16.81,85,0,8.43,RU,1607274774
164,zlobin,45.29,14.65,55.99,93,90,10.29,HR,1607274774
165,lompoc,34.64,-120.46,42.8,93,1,8.05,US,1607274696
166,toledo,39.83,-4.0,46.0,61,59,16.96,ES,1607274775
167,ossora,59.24,163.07,16.86,79,100,4.34,RU,1607274775
168,victoria,22.29,114.16,66.0,73,0,7.61,HK,1607274591
169,kruisfontein,-34.0,24.73,66.0,92,100,7.0,ZA,1607274775
170,manuk mangkaw,4.8,119.85,83.39,71,97,1.81,PH,1607274775
171,khandyga,62.67,135.6,-14.39,89,100,4.21,RU,1607274776
172,norman wells,65.28,-126.83,-5.8,83,20,3.15,CA,1607274776
173,prince rupert,54.32,-130.32,48.2,93,90,18.34,CA,1607274728
174,ajdabiya,30.76,20.23,64.98,40,77,1.45,LY,1607274776
175,castanos,26.78,-101.42,62.01,35,20,6.93,MX,1607274776
176,abu dhabi,24.47,54.37,78.8,78,0,3.36,AE,1607274776
177,matara,5.95,80.54,76.8,85,64,3.33,LK,1607274679
178,hayden,47.77,-116.79,23.0,92,1,4.7,US,1607274777
179,klaksvik,62.23,-6.59,30.2,86,82,18.19,FO,1607274777
180,maniitsoq,65.42,-52.9,27.0,97,100,12.71,GL,1607274777
181,cayenne,4.93,-52.33,87.8,62,20,13.87,GF,1607274777
182,marienburg,54.04,19.03,39.99,100,100,18.03,PL,1607274777
183,butaritari,3.07,172.79,81.1,78,87,7.52,KI,1607274777
184,guanica,17.97,-66.91,86.0,75,19,7.0,PR,1607274778
185,pisco,-13.7,-76.22,71.01,82,0,10.29,PE,1607274778
186,iranshahr,27.2,60.68,75.2,27,0,4.7,IR,1607274778
187,tautira,-17.73,-149.15,73.4,88,75,16.11,PF,1607274778
188,muros,42.78,-9.06,55.0,92,100,7.65,ES,1607274778
189,roald,62.58,6.13,37.4,93,75,2.24,NO,1607274778
190,hofn,64.25,-15.21,28.4,63,20,5.82,IS,1607274779
191,mulchen,-37.72,-72.23,80.6,18,0,5.82,CL,1607274779
192,guerrero negro,27.98,-114.06,67.87,25,0,3.22,MX,1607274779
193,norsup,-16.07,167.38,77.94,81,86,3.22,VU,1607274779
194,sur,22.57,59.53,76.46,66,22,14.0,OM,1607274779
195,perpignan,42.75,2.75,48.2,63,0,17.22,FR,1607274779
196,shestakovo,56.49,103.96,8.38,91,100,9.48,RU,1607274780
197,kapaa,22.08,-159.32,68.0,88,1,6.93,US,1607274780
198,lloydminster,53.28,-110.0,17.6,78,20,12.75,CA,1607274780
199,basoko,1.24,23.62,78.03,74,28,3.02,CD,1607274780
200,fortuna,40.6,-124.16,45.0,1,58,2.68,US,1607274497
201,georgetown,5.41,100.34,80.6,88,20,4.7,MY,1607274780
202,mao,39.89,4.27,50.0,81,75,9.17,ES,1607274780
203,marawi,8.0,124.29,75.0,95,100,3.0,PH,1607274781
204,samarai,-10.62,150.67,81.79,82,86,12.59,PG,1607274781
205,haileybury,47.45,-79.64,14.0,92,90,5.82,CA,1607274781
206,karratha,-20.74,116.85,86.07,61,51,5.7,AU,1607274781
207,sindou,10.67,-5.17,93.7,20,59,2.86,BF,1607274781
208,ribeira grande,38.52,-28.7,62.6,67,75,9.17,PT,1607274781
209,talnakh,69.49,88.4,14.0,85,90,11.18,RU,1607274782
210,cocorit,27.58,-109.97,60.8,25,5,7.2,MX,1607274782
211,mehamn,71.04,27.85,33.8,55,40,6.93,NO,1607274782
212,kidal,18.44,1.41,84.42,17,10,9.55,ML,1607274782
213,memari,23.2,88.12,71.6,73,0,3.36,IN,1607274782
214,padang,-0.95,100.35,78.48,77,90,3.38,ID,1607274782
215,nome,64.5,-165.41,7.0,65,1,5.82,US,1607274698
216,salina,38.84,-97.61,42.01,69,1,12.75,US,1607274559
217,ganzhou,28.82,115.43,46.78,76,12,4.88,CN,1607274783
218,saint pete beach,27.73,-82.74,66.99,59,1,8.05,US,1607274783
219,sept-iles,50.2,-66.38,28.0,86,100,11.41,CA,1607274556
220,leopold,-38.18,144.47,53.6,81,75,20.8,AU,1607274783
221,kaitangata,-46.28,169.85,47.48,78,15,5.21,NZ,1607274783
222,shagonar,51.53,92.8,-7.08,89,90,2.44,RU,1607274783
223,hansot,21.58,72.8,76.6,34,0,7.58,IN,1607274783
224,thul,28.24,68.78,66.2,82,0,8.14,PK,1607274784
225,aklavik,68.22,-135.01,-20.2,75,5,3.36,CA,1607274692
226,oktyabrskiy,54.48,53.47,9.72,86,10,2.84,RU,1607274784
227,esmeraldas,-19.76,-44.31,78.8,50,75,8.05,BR,1607274784
228,marystown,47.17,-55.15,47.37,97,100,17.76,CA,1607274784
229,shaping,22.75,112.96,61.0,74,0,4.5,CN,1607274784
230,tiksi,71.69,128.87,-12.06,89,100,4.07,RU,1607274784
231,soyo,-6.13,12.37,79.36,82,59,11.05,AO,1607274785
232,beringovskiy,63.05,179.32,18.99,93,85,4.38,RU,1607274785
233,ponta do sol,32.67,-17.1,62.6,77,40,13.87,PT,1607274785
234,coro,11.4,-69.67,86.05,64,23,13.33,VE,1607274785
235,kavieng,-2.57,150.8,82.49,77,30,11.18,PG,1607274785
236,xining,36.62,101.77,19.04,85,80,3.18,CN,1607274785
237,deputatskiy,69.3,139.9,-26.77,83,32,1.66,RU,1607274652
238,fort nelson,58.81,-122.7,24.8,92,75,4.7,CA,1607274786
239,huarmey,-10.07,-78.15,72.9,69,100,10.76,PE,1607274662
240,hualmay,-11.1,-77.61,72.34,69,99,9.71,PE,1607274786
241,namibe,-15.2,12.15,69.1,73,44,9.55,AO,1607274786
242,devils lake,48.11,-98.87,32.0,67,1,10.29,US,1607274786
243,dhidhdhoo,6.88,73.1,82.17,78,99,5.68,MV,1607274786
244,ilulissat,69.22,-51.1,24.8,53,98,23.04,GL,1607274786
245,itarema,-2.92,-39.92,85.95,61,100,17.45,BR,1607274787
246,komsomolskiy,40.43,71.72,30.2,80,40,6.93,UZ,1607274787
247,salym,60.06,71.48,13.12,91,87,11.25,RU,1607274787
248,zhigansk,66.77,123.37,-6.56,90,100,20.78,RU,1607274787
249,pantai remis,4.46,100.63,78.8,94,20,2.82,MY,1607274787
250,egvekinot,66.32,-179.17,8.55,90,41,4.99,RU,1607274787
251,kasongo-lunda,-6.47,16.82,73.72,89,79,1.57,CD,1607274788
252,barrow,71.29,-156.79,15.8,85,90,10.29,US,1607274503
253,mana,5.66,-53.78,84.2,72,85,8.86,GF,1607274788
254,necochea,-38.55,-58.74,88.0,24,0,1.88,AR,1607274738
255,souillac,-20.52,57.52,78.8,78,40,4.7,MU,1607274650
256,kavaratti,10.57,72.64,83.19,77,50,11.81,IN,1607274683
257,ormara,25.21,64.64,76.95,70,0,2.33,PK,1607274788
258,burnie,-41.07,145.92,46.0,90,59,10.0,AU,1607274788
259,constitucion,-35.33,-72.42,66.31,54,5,7.61,CL,1607274789
260,redcliffe,-27.23,153.1,81.0,83,0,10.69,AU,1607274789
261,verkhnevilyuysk,63.45,120.32,0.61,91,100,9.6,RU,1607274789
262,alice springs,-23.7,133.88,71.6,53,40,1.12,AU,1607274732
263,conil,44.97,3.72,35.6,80,75,8.05,FR,1607274789
264,calama,-22.47,-68.93,75.2,14,0,16.11,CL,1607274789
265,ugoofaaru,5.67,73.0,81.95,78,91,18.52,MV,1607274790
266,topolovatu mare,45.77,21.62,50.0,87,0,4.7,RO,1607274790
267,naryan-mar,67.67,53.09,34.21,95,100,18.54,RU,1607274790
268,bonthe,7.53,-12.51,84.0,70,45,6.71,SL,1607274790
269,koksovyy,48.2,40.6,19.56,90,9,16.35,RU,1607274790
270,san quintin,30.48,-115.95,65.95,28,65,2.39,MX,1607274788
271,melipilla,-33.7,-71.22,90.0,93,90,8.05,CL,1607274759
272,bo rai,12.57,102.54,72.0,10,64,4.56,TH,1607274791
273,batagay-alyta,67.8,130.41,-33.18,81,30,1.32,RU,1607274791
274,ranong,9.97,98.63,73.45,84,73,6.31,TH,1607274791
275,sakaiminato,35.55,133.23,41.0,93,40,5.82,JP,1607274791
276,slave lake,55.28,-114.77,15.8,85,1,4.7,CA,1607274791
277,geraldton,-28.77,114.6,64.4,72,0,12.75,AU,1607274791
278,kirakira,-10.45,161.92,78.87,79,98,1.45,SB,1607274791
279,kibala,9.11,18.35,87.8,40,0,2.26,TD,1607274792
280,lorengau,-2.02,147.27,83.07,74,95,10.36,PG,1607274792
281,viedma,-40.81,-63.0,91.0,22,0,8.01,AR,1607274735
282,kutum,14.2,24.67,71.42,21,12,8.95,SD,1607274792
283,lazaro cardenas,17.96,-102.2,84.54,51,39,3.65,MX,1607274792
284,thaton,16.92,97.37,72.9,75,0,2.33,MM,1607274497
285,okhtyrka,50.31,34.9,23.31,87,0,15.46,UA,1607274792
286,alihe,50.57,123.72,2.61,88,0,3.29,CN,1607274793
287,jiayuguan,39.82,98.3,12.45,87,20,4.25,CN,1607274793
288,cabo san lucas,22.89,-109.91,73.99,37,5,4.7,MX,1607274793
289,port elizabeth,-33.92,25.57,66.2,93,90,18.34,ZA,1607274749
290,tondano,1.3,124.91,77.0,94,40,0.65,ID,1607274793
291,goderich,43.75,-81.72,30.2,74,82,4.7,CA,1607274793
292,zhuhai,22.28,113.57,64.4,77,0,3.36,CN,1607274768
293,sistranda,63.73,8.83,35.6,80,75,8.05,NO,1607274794
294,hirara,24.8,125.28,74.62,84,99,22.19,JP,1607274794
295,vao,-22.67,167.48,75.87,82,97,17.67,NC,1607274794
296,abha,18.22,42.51,62.6,77,0,6.93,SA,1607274794
297,saint george,37.1,-113.58,35.6,24,1,3.36,US,1607274629
298,mogadishu,2.04,45.34,80.19,74,0,11.88,SO,1607274747
299,porbandar,21.64,69.61,76.6,53,0,1.41,IN,1607274795
300,guerande,47.33,-2.43,44.6,65,0,6.93,FR,1607274795
301,vitim,59.45,112.56,7.09,92,100,10.36,RU,1607274795
302,xiaoshi,41.3,124.12,17.6,57,0,2.24,CN,1607274795
303,grindavik,63.84,-22.43,32.0,79,90,10.29,IS,1607274795
304,mahebourg,-20.41,57.7,77.0,83,40,6.93,MU,1607274796
305,poyarkovo,49.6,128.68,1.89,93,44,5.35,RU,1607274796
306,noyabrsk,63.2,75.45,17.92,97,100,18.03,RU,1607274796
307,nishihara,26.18,127.76,71.6,100,40,9.17,JP,1607274796
308,cherskiy,68.75,161.3,-9.29,89,88,4.03,RU,1607274499
309,rucheng,32.39,120.56,51.01,99,99,5.48,CN,1607274796
310,peniche,39.36,-9.38,55.99,88,99,4.0,PT,1607274521
311,lamu,-2.27,40.9,82.4,83,40,6.93,KE,1607274796
312,olafsvik,64.89,-23.71,31.68,92,100,12.8,IS,1607274797
313,talcher,20.95,85.22,67.33,55,0,2.75,IN,1607274797
314,nyrob,60.73,56.72,17.98,97,98,4.52,RU,1607274797
315,ahipara,-35.17,173.17,58.35,91,81,7.38,NZ,1607274503
316,salalah,17.02,54.09,78.8,74,0,2.24,OM,1607274797
317,hasaki,35.73,140.83,39.2,100,20,3.36,JP,1607274797
318,kleive,62.8,7.64,39.2,93,40,4.7,NO,1607274798
319,lavrentiya,65.58,-171.0,14.88,87,0,9.15,RU,1607274798
320,kafanchan,9.58,8.3,82.4,23,0,5.82,NG,1607274798
321,mountain home,43.13,-115.69,24.8,100,1,6.93,US,1607274721
322,crixas,-14.55,-49.97,92.48,47,98,1.32,BR,1607274798
323,puerto concordia,2.62,-72.76,88.16,57,36,3.69,CO,1607274798
324,cabedelo,-6.98,-34.83,87.8,58,40,11.41,BR,1607274672
325,doha,25.29,51.53,75.2,60,0,13.87,QA,1607274798
326,bilma,18.69,12.92,78.58,17,26,5.44,NE,1607274799
327,torbay,47.67,-52.73,46.99,100,90,9.17,CA,1607274799
328,saint-francois,46.42,3.91,39.0,93,75,4.7,FR,1607274799
329,westport,41.14,-73.36,42.01,48,1,19.46,US,1607274799
330,phalodi,27.13,72.37,71.19,23,1,8.99,IN,1607274799
331,kangaba,11.93,-8.42,96.76,11,0,4.07,ML,1607274799
332,diamantino,-14.41,-56.45,89.22,53,96,5.86,BR,1607274799
333,shebunino,46.43,141.86,31.64,93,100,9.33,RU,1607274800
334,champerico,14.3,-91.92,84.2,70,75,5.91,GT,1607274800
335,san antonio,29.42,-98.49,59.0,58,1,6.93,US,1607274800
336,skelleftea,64.75,20.95,41.0,100,90,9.17,SE,1607274786
337,namatanai,-3.67,152.43,79.84,78,52,4.74,PG,1607274800
338,lerwick,60.15,-1.15,44.6,87,40,10.29,GB,1607274800
339,mapastepec,15.43,-92.9,86.74,53,73,3.27,MX,1607274800
340,nador,35.17,-2.93,57.2,67,40,19.46,MA,1607274800
341,saint-denis,48.92,2.33,41.0,93,0,3.36,FR,1607274801
342,vila franca do campo,37.72,-25.43,60.8,67,20,6.93,PT,1607274801
343,honningsvag,70.98,25.97,33.8,55,40,6.93,NO,1607274801
344,puerto baquerizo moreno,-0.9,-89.6,75.2,88,90,9.17,EC,1607274607
345,kyra,49.58,111.98,4.78,77,95,4.72,RU,1607274801
346,san luis,-33.3,-66.34,82.22,23,0,5.7,AR,1607274746
347,xuddur,4.12,43.89,85.1,41,74,7.83,SO,1607274801
348,nikolskoye,59.7,30.79,33.01,89,0,8.95,RU,1607274802
349,naron,43.52,-8.15,54.0,85,100,12.01,ES,1607274802
350,baghdad,33.34,44.4,59.0,51,0,5.82,IQ,1607274802
351,soe,-9.86,124.28,68.47,100,100,1.1,ID,1607274802
352,porto velho,-8.76,-63.9,77.0,94,75,2.24,BR,1607274802
353,aviles,43.55,-5.92,48.99,93,75,10.29,ES,1607274802
354,sambava,-14.27,50.17,77.76,79,3,8.61,MG,1607274803
355,manicore,-5.81,-61.3,84.25,83,100,1.97,BR,1607274803
356,placido de castro,-10.34,-67.19,74.43,97,100,2.93,BR,1607274803
357,aswan,24.09,32.91,66.54,26,0,5.14,EG,1607274803
358,poum,-20.23,164.02,77.5,80,8,7.49,NC,1607274803
359,mercedes,-34.65,-59.43,78.01,40,0,1.99,AR,1607274804
360,nanortalik,60.14,-45.24,31.1,93,58,3.89,GL,1607274597
361,new iberia,30.0,-91.82,48.2,93,90,8.05,US,1607274773
362,kulhudhuffushi,6.62,73.07,82.27,77,100,9.35,MV,1607274804
363,san patricio,28.02,-97.52,52.0,81,75,14.99,US,1607274804
364,pimentel,-6.84,-79.93,75.2,64,20,10.29,PE,1607274804
365,durban,-29.86,31.03,73.99,83,40,6.93,ZA,1607274753
366,kiama,-34.68,150.87,57.99,67,0,1.99,AU,1607274670
367,faya,18.39,42.45,62.6,77,0,6.93,SA,1607274608
368,harper,4.38,-7.72,82.11,74,37,8.19,LR,1607274805
369,charters towers,-20.1,146.27,71.38,80,0,14.34,AU,1607274765
370,flinders,-34.58,150.86,57.99,67,0,1.99,AU,1607274805
371,normandin,48.83,-72.53,21.2,73,100,12.75,CA,1607274805
372,rosarito,32.33,-117.03,64.99,12,1,4.7,MX,1607274805
373,tazovskiy,67.47,78.7,13.23,97,100,9.75,RU,1607274806
374,oga,46.46,10.35,33.8,100,90,1.12,IT,1607274806
375,brae,60.4,-1.35,44.6,87,40,10.29,GB,1607274806
376,zaysan,47.47,84.87,6.82,91,42,1.45,KZ,1607274806
377,halifax,44.65,-63.57,45.0,75,100,28.86,CA,1607274687
378,nioki,-2.72,17.68,75.87,83,70,2.55,CD,1607274806
379,teguldet,57.31,88.17,8.37,94,100,8.93,RU,1607274807
380,srivardhan,18.03,73.02,74.98,58,29,5.93,IN,1607274807
381,bud,39.45,-86.18,33.01,76,90,4.52,US,1607274807
382,morant bay,17.88,-76.41,88.0,66,20,5.82,JM,1607274807
383,sola,-13.88,167.55,79.05,83,51,1.68,VU,1607274807
384,baijiantan,45.63,85.18,19.4,91,11,4.07,CN,1607274807
385,romny,50.75,33.47,20.39,94,0,12.01,UA,1607274807
386,surt,31.21,16.59,64.53,58,28,25.43,LY,1607274623
387,ewa beach,21.32,-158.01,69.8,93,1,3.36,US,1607274808
388,mount isa,-20.73,139.5,84.2,18,75,16.11,AU,1607274808
389,bull savanna,17.89,-77.59,79.95,66,56,4.09,JM,1607274808
390,kabinda,-6.13,24.48,69.26,91,78,2.37,CD,1607274808
391,killybegs,54.63,-8.45,41.0,82,20,1.12,IE,1607274808
392,kadirli,37.37,36.1,63.0,37,0,1.83,TR,1607274801
393,itaqui,-29.13,-56.55,76.93,59,47,9.35,BR,1607274809
394,aksu,41.12,80.26,22.37,88,25,3.6,CN,1607274809
395,kota belud,6.35,116.43,77.0,94,20,3.36,MY,1607274809
396,srednekolymsk,67.45,153.68,-21.66,86,97,5.84,RU,1607274809
397,santa rosa,14.31,121.11,82.4,78,75,3.36,PH,1607274809
398,gillette,44.29,-105.5,48.2,23,1,5.82,US,1607274782
399,chiriqui grande,8.95,-82.12,75.99,52,44,4.05,PA,1607274810
400,bodden town,19.28,-81.25,82.4,78,40,4.7,KY,1607274810
401,ronneby,56.21,15.28,46.4,93,75,13.87,SE,1607274810
402,snyder,32.72,-100.92,50.0,43,1,13.87,US,1607274810
403,hvide sande,56.0,8.13,41.0,75,100,3.0,DK,1607274810
404,okhotsk,59.38,143.3,-10.8,83,0,16.51,RU,1607274810
405,comodoro rivadavia,-45.87,-67.5,77.0,41,0,6.93,AR,1607274810
406,lyngseidet,69.58,20.22,25.0,92,0,9.17,NO,1607274810
407,kaduy,59.2,37.15,19.4,79,0,4.47,RU,1607274811
408,japura,-0.32,102.35,75.31,88,100,2.06,ID,1607274811
409,camana,-16.62,-72.71,72.19,63,96,8.95,PE,1607274811
410,sars,56.55,57.14,7.3,93,66,8.79,RU,1607274811
411,atar,20.52,-13.05,74.66,28,71,14.38,MR,1607274811
412,oistins,13.07,-59.53,86.0,66,40,17.22,BB,1607274812
413,sciacca,37.51,13.09,46.99,88,44,3.0,IT,1607274812
414,hernani,43.27,-1.98,46.0,93,40,11.41,ES,1607274812
415,sangar,63.92,127.47,-9.87,88,100,16.64,RU,1607274812
416,saint-pierre,-21.34,55.48,78.8,74,75,2.24,RE,1607274812
417,nhulunbuy,-12.23,136.77,80.6,88,75,4.7,AU,1607274812
418,puerto madero,14.72,-92.42,86.0,70,40,2.24,MX,1607274813
419,lemon tree passage,-32.73,152.04,69.01,77,100,5.35,AU,1607274521
420,gigmoto,13.78,124.39,81.14,86,100,9.48,PH,1607274813
421,tenjo,4.87,-74.14,64.4,48,40,1.97,CO,1607274813
422,nakamura,32.98,132.93,47.66,74,0,4.27,JP,1607274813
423,los llanos de aridane,28.66,-17.92,66.2,72,75,18.34,ES,1607274813
424,tubuala,9.52,-79.03,90.0,66,40,4.7,PA,1607274813
425,hoshcha,50.6,26.67,29.59,85,0,17.36,UA,1607274814
426,sarny,51.34,26.6,29.66,86,0,15.48,UA,1607274814
427,formosa,-26.18,-58.18,82.4,51,20,12.75,AR,1607274814
428,kaihua,23.37,104.28,49.62,91,42,5.12,CN,1607274814
429,jizan,17.33,42.67,86.0,70,20,6.93,SA,1607274814
430,kota kinabalu,5.97,116.07,77.0,94,20,3.36,MY,1607274814
431,bourail,-21.57,165.48,75.43,81,0,2.84,NC,1607274814
432,manzhouli,49.6,117.43,3.63,87,3,13.96,CN,1607274814
433,ketchikan,55.34,-131.65,46.4,93,90,46.08,US,1607274815
434,sao felix do xingu,-6.64,-51.99,84.74,77,100,1.25,BR,1607274815
435,vangaindrano,-23.35,47.6,73.85,81,68,3.56,MG,1607274815
436,acari,-15.43,-74.62,78.48,49,99,9.86,PE,1607274815
437,labuhan,-6.88,112.21,81.21,83,97,12.62,ID,1607274815
438,sitka,57.05,-135.33,48.2,70,90,21.92,US,1607274618
439,buchanan,5.88,-10.05,89.6,66,75,11.41,LR,1607274815
440,santa cruz do capibaribe,-7.96,-36.2,91.47,33,38,12.64,BR,1607274815
441,ritchie,-29.04,24.6,71.6,56,75,20.8,ZA,1607274816
442,diffa,13.32,12.61,83.98,16,79,9.91,NE,1607274811
443,edgewater,28.99,-80.9,69.01,63,75,3.36,US,1607274816
444,andenes,69.31,16.12,32.0,80,20,11.41,NO,1607274816
445,kizukuri,40.81,140.39,39.0,82,93,1.99,JP,1607274816
446,artemovsk,49.84,36.04,17.6,72,0,11.18,UA,1607274816
447,eyl,7.98,49.82,78.03,72,0,11.16,SO,1607274816
448,qasigiannguit,68.82,-51.19,24.8,53,93,23.04,GL,1607274646
449,isangel,-19.55,169.27,77.32,86,73,9.46,VU,1607274817
450,oum hadjer,13.3,19.7,79.61,17,43,2.21,TD,1607274817
451,toba,34.48,136.85,46.4,75,20,11.41,JP,1607274817
452,viborg,56.45,9.4,44.01,100,100,9.17,DK,1607274817
453,byron bay,-28.65,153.62,79.0,78,90,10.29,AU,1607274817
454,constantine,36.37,6.61,48.2,59,75,17.22,DZ,1607274817
455,mahibadhoo,3.78,72.97,82.76,75,94,15.32,MV,1607274818
456,hamilton,39.18,-84.53,37.99,69,20,6.93,US,1607274590
457,shumskiy,54.83,99.13,14.13,89,100,3.8,RU,1607274818
458,krasnaya gora,53.0,31.6,24.8,45,0,8.95,RU,1607274818
459,coihaique,-45.58,-72.07,75.2,41,0,6.93,CL,1607274814
460,bakel,14.9,-12.46,97.09,14,20,6.33,SN,1607274818
461,salinopolis,-0.61,-47.36,84.51,68,99,11.27,BR,1607274818
462,te anau,-45.42,167.72,51.96,84,76,6.51,NZ,1607274819
463,ayan,56.45,138.17,3.72,84,6,12.48,RU,1607274819
464,dalby,-27.18,151.27,73.0,82,77,4.63,AU,1607274819
465,ampanihy,-24.7,44.75,72.86,76,98,13.11,MG,1607274819
466,kamina,-8.74,24.99,66.7,95,97,2.66,CD,1607274820
467,maldonado,-34.67,-54.92,68.0,56,40,18.34,UY,1607274686
468,koberice,49.99,18.05,53.6,54,0,8.05,CZ,1607274820
469,pomabamba,-8.83,-77.47,58.19,59,81,5.55,PE,1607274820
470,kathu,7.92,98.33,84.0,83,20,6.93,TH,1607274820
471,alamogordo,32.9,-105.96,45.0,35,1,3.36,US,1607274820
472,zyryanka,65.75,150.85,-18.72,88,100,2.17,RU,1607274820
473,hays,30.05,-98.03,60.01,58,0,1.01,US,1607274821
474,kletskaya,49.31,43.06,12.0,86,0,5.01,RU,1607274821
475,tezu,27.92,96.17,64.51,47,93,2.93,IN,1607274821
476,chuy,-33.7,-53.46,67.08,55,59,10.4,UY,1607274821
477,coquimbo,-29.95,-71.34,62.6,67,40,12.75,CL,1607274626
478,road town,18.42,-64.62,80.6,69,75,12.75,VG,1607274642
479,trat,12.5,102.5,72.0,10,74,5.28,TH,1607274821
480,khanpur,28.65,70.66,67.17,30,21,3.94,PK,1607274822
481,tshikapa,-6.42,20.8,71.83,88,82,0.92,CD,1607274822
482,zhenlai,45.85,123.3,12.76,80,0,8.66,CN,1607274822
483,mosquera,4.71,-74.23,64.4,48,40,4.88,CO,1607274822
484,newton,42.34,-71.21,37.4,59,1,16.11,US,1607274600
485,ayr,55.46,-4.63,39.2,86,40,4.12,GB,1607274786
486,batagay,67.63,134.63,-27.72,81,17,3.69,RU,1607274822
487,antofagasta,-23.65,-70.4,66.2,68,75,11.41,CL,1607274822
488,alofi,-19.06,-169.92,77.0,94,68,5.82,NU,1607274823
489,longyan,25.11,117.02,57.0,80,0,1.99,CN,1607274823
490,porto novo,6.5,2.6,82.56,73,74,9.84,BJ,1607274823
491,yumen,40.28,97.2,13.1,92,6,6.4,CN,1607274823
492,katangli,51.71,143.23,10.11,89,26,8.41,RU,1607274823
493,hammerfest,70.66,23.68,30.2,80,40,5.82,NO,1607274818
494,sangod,24.92,76.28,69.85,34,0,2.26,IN,1607274824
495,bethel,41.37,-73.41,37.0,51,1,10.29,US,1607274824
496,sarankhola,22.31,89.79,65.91,84,0,3.85,BD,1607274824
497,methoni,36.82,21.7,64.0,76,20,23.42,GR,1607274824
498,deer lake,49.17,-57.43,37.4,93,90,12.75,CA,1607274824
499,svetlaya,46.54,138.33,20.07,87,82,8.14,RU,1607274824
500,rawson,-43.3,-65.1,82.51,23,13,11.72,AR,1607274747
501,preeceville,51.95,-102.67,29.73,93,40,5.5,CA,1607274825
502,kiunga,-6.12,141.29,74.03,93,98,1.01,PG,1607274825
503,naze,28.37,129.48,68.0,88,88,4.7,JP,1607274825
504,norman,35.22,-97.44,51.01,51,1,9.17,US,1607274825
505,nguruka,-5.11,31.04,68.86,86,6,2.77,TZ,1607274825
506,belozerskoye,55.82,65.58,8.94,93,59,7.34,RU,1607274825
507,areia branca,-4.96,-37.14,87.71,54,95,17.6,BR,1607274825
508,lincoln,40.8,-96.67,37.0,69,1,10.29,US,1607274787
509,southbridge,42.08,-72.03,34.0,54,0,13.56,US,1607274826
510,ilorin,8.5,4.55,92.79,21,75,4.92,NG,1607274705
511,kudahuvadhoo,2.67,72.89,83.23,76,96,14.58,MV,1607274826
512,isabela,6.71,121.97,79.03,86,100,3.53,PH,1607274826
513,ngama,11.78,17.17,85.21,14,75,6.55,TD,1607274827
514,bella vista,36.43,-94.23,44.01,60,1,6.93,US,1607274827
515,requena,39.49,-1.1,42.01,61,0,4.0,ES,1607274827
516,lahij,13.17,44.58,75.06,69,6,5.12,YE,1607274827
517,laramie,41.31,-105.59,44.01,67,1,5.82,US,1607274827
518,saint-joseph,-21.37,55.62,78.8,74,75,2.24,RE,1607274828
519,barranco,9.52,-82.7,84.2,66,0,3.36,PA,1607274828
520,la ronge,55.1,-105.28,30.2,74,29,6.93,CA,1607274828
521,nanakuli,21.39,-158.15,69.8,93,1,3.36,US,1607274828
522,kassala,15.45,36.4,79.47,40,1,10.78,SD,1607274828
523,la rioja,42.25,-2.5,44.6,75,90,8.05,ES,1607274829
524,fort-shevchenko,44.51,50.26,26.35,89,0,19.66,KZ,1607274829
525,pitimbu,-7.47,-34.81,87.8,58,40,11.41,BR,1607274829
526,cairns,-16.92,145.77,73.4,88,38,3.22,AU,1607274755
527,ulaanbaatar,47.91,106.88,-14.8,68,40,2.24,MN,1607274829
528,pringsewu,-5.36,104.97,73.65,90,91,1.12,ID,1607274829
529,vostok,46.49,135.88,6.6,97,98,4.5,RU,1607274830
530,rundu,-17.93,19.77,81.16,49,93,2.26,NA,1607274830
531,brownsville,25.9,-97.5,57.0,66,1,12.75,US,1607274547
532,tawang,27.58,91.87,35.33,83,88,1.83,IN,1607274830
533,dingle,11.0,122.67,75.18,94,100,3.69,PH,1607274830
534,maraba,-5.37,-49.12,87.8,70,90,3.36,BR,1607274558
535,kalmunai,7.42,81.82,78.62,88,32,10.49,LK,1607274831
536,sioux lookout,50.1,-91.92,28.4,92,90,5.82,CA,1607274831
537,harboore,56.62,8.18,41.0,97,100,1.01,DK,1607274831
538,nsanje,-16.92,35.26,79.11,82,100,6.78,MW,1607274831
539,sao joao da barra,-21.64,-41.05,80.6,83,75,9.17,BR,1607274831
540,songjianghe,42.19,127.48,16.79,88,18,5.19,CN,1607274831
541,port macquarie,-31.43,152.92,69.8,94,100,1.92,AU,1607274759
542,port-cartier,50.03,-66.87,28.4,86,100,9.17,CA,1607274831
543,west wendover,40.74,-114.07,15.8,56,1,1.63,US,1607274832
544,mingyue,43.11,128.92,19.67,85,5,12.59,CN,1607274832
545,bandarbeyla,9.49,50.81,76.23,75,29,12.59,SO,1607274832
546,borovskoy,53.8,64.15,7.27,94,60,7.49,KZ,1607274832
547,nelson bay,-32.72,152.15,69.01,77,100,7.11,AU,1607274832
548,grand gaube,-20.01,57.66,79.0,78,4,5.99,MU,1607274832
