,City,Lat,Lng,Max temp,Humidity,Cloudiness,Wind Speed,Country,Date
0,geraldton,-28.77,114.6,78.8,39,0,14.99,AU,1607222860
1,jamestown,42.1,-79.24,30.0,92,90,12.75,US,1607222789
2,bengkulu,-3.8,102.27,84.11,64,100,5.41,ID,1607222860
3,puerto ayora,-0.74,-90.35,71.01,91,75,1.99,EC,1607222860
4,rikitea,-23.12,-134.97,77.43,78,3,15.08,PF,1607222860
5,port alfred,-33.59,26.89,68.09,89,96,16.35,ZA,1607222860
6,busselton,-33.65,115.33,62.01,67,91,1.99,AU,1607222860
7,tuatapere,-46.13,167.68,63.0,62,100,5.01,NZ,1607222861
8,kapaa,22.08,-159.32,80.6,69,40,5.82,US,1607222861
9,ushuaia,-54.8,-68.3,53.6,71,75,9.17,AR,1607222861
10,egvekinot,66.32,-179.17,8.51,94,0,2.06,RU,1607222861
11,waiouru,-39.48,175.67,64.53,40,100,7.65,NZ,1607222861
12,chokurdakh,70.63,147.92,-30.75,81,8,5.68,RU,1607222861
13,luganville,-15.53,167.17,84.2,74,75,8.05,VU,1607222861
14,kavaratti,10.57,72.64,82.89,76,12,13.04,IN,1607222862
15,tuktoyaktuk,69.45,-133.04,-0.4,70,20,12.75,CA,1607222862
16,boden,65.83,21.69,33.8,100,100,3.36,SE,1607222862
17,bereda,43.27,-7.54,37.99,100,78,5.01,ES,1607222862
18,krasnokamensk,50.1,118.04,4.53,90,0,3.98,RU,1607222862
19,rincon,32.3,-81.24,44.6,87,1,2.8,US,1607222862
20,chuy,-33.7,-53.46,51.89,75,24,1.81,UY,1607222862
21,troitskoye,52.98,84.68,6.39,94,100,3.94,RU,1607222862
22,zaysan,47.47,84.87,9.36,90,52,0.56,KZ,1607222863
23,lerwick,60.15,-1.15,42.8,87,99,13.87,GB,1607222863
24,hermanus,-34.42,19.23,64.99,84,100,5.99,ZA,1607222611
25,novosil,52.97,37.04,21.31,79,0,9.64,RU,1607222863
26,beloha,-25.17,45.05,70.93,70,100,10.18,MG,1607222863
27,mahebourg,-20.41,57.7,73.4,88,40,1.12,MU,1607222863
28,ibipeba,-11.64,-42.01,69.01,79,19,3.98,BR,1607222863
29,caluquembe,-13.78,14.68,57.24,96,39,6.31,AO,1607222864
30,punta arenas,-53.15,-70.92,57.0,76,100,16.11,CL,1607222864
31,bluff,-46.6,168.33,63.0,62,100,5.01,NZ,1607222864
32,albany,42.6,-73.97,36.0,61,32,14.0,US,1607222728
33,aanekoski,62.69,25.82,36.0,100,90,8.05,FI,1607222864
34,tasiilaq,65.61,-37.64,24.8,79,100,9.17,GL,1607222864
35,maniitsoq,65.42,-52.9,28.35,97,99,12.75,GL,1607222864
36,pevek,69.7,170.31,7.68,91,100,6.53,RU,1607222865
37,qaanaaq,77.48,-69.36,-9.02,69,100,6.64,GL,1607222865
38,jerome,42.72,-114.52,37.4,40,1,16.11,US,1607222865
39,bredasdorp,-34.53,20.04,62.6,93,100,5.82,ZA,1607222865
40,nikolskoye,59.7,30.79,35.6,92,90,6.71,RU,1607222865
41,mar del plata,-38.0,-57.56,57.0,81,0,4.7,AR,1607222865
42,ribeira grande,38.52,-28.7,58.84,71,95,9.44,PT,1607222865
43,taltal,-25.4,-70.48,60.42,72,13,2.91,CL,1607222866
44,new norfolk,-42.78,147.06,57.0,61,87,8.01,AU,1607222866
45,hamilton,39.18,-84.53,32.0,86,1,2.93,US,1607222866
46,mataura,-46.19,168.86,63.0,62,100,5.01,NZ,1607222866
47,cape town,-33.93,18.42,64.4,68,0,9.17,ZA,1607222578
48,rawson,-43.3,-65.1,65.41,44,16,12.19,AR,1607222866
49,sisimiut,66.94,-53.67,28.58,92,93,12.68,GL,1607222866
50,los llanos de aridane,28.66,-17.92,62.6,82,75,8.05,ES,1607222867
51,nagornskiy,58.77,57.55,12.99,88,97,4.76,RU,1607222867
52,butaritari,3.07,172.79,82.0,77,88,13.02,KI,1607222867
53,batagay,67.63,134.63,-24.2,84,90,3.91,RU,1607222867
54,kyra,49.58,111.98,4.75,74,0,6.49,RU,1607222867
55,saskylakh,71.92,114.08,0.82,92,100,11.1,RU,1607222867
56,buctzotz,21.2,-88.78,72.55,97,47,3.58,MX,1607222867
57,dikson,73.51,80.55,9.45,96,100,6.82,RU,1607222868
58,vammala,61.33,22.9,37.99,100,90,8.05,FI,1607222868
59,lebu,-37.62,-73.65,52.56,92,98,12.24,CL,1607222868
60,thompson,55.74,-97.86,17.6,92,90,2.24,CA,1607222868
61,high level,58.52,-117.14,19.4,100,75,2.24,CA,1607222868
62,isilkul,54.91,71.27,0.46,93,99,5.3,RU,1607222868
63,murakami,38.23,139.48,50.0,81,75,9.17,JP,1607222868
64,kavieng,-2.57,150.8,85.33,64,0,10.56,PG,1607222869
65,kodiak,57.79,-152.41,35.6,64,90,17.22,US,1607222869
66,bathsheba,13.22,-59.52,78.8,78,20,10.29,BB,1607222869
67,kholodnyy,62.72,147.95,-14.78,85,98,2.3,RU,1607222869
68,mandalgovi,45.76,106.27,0.3,86,2,18.59,MN,1607222869
69,hithadhoo,-0.6,73.08,82.36,79,84,19.01,MV,1607222869
70,ca mau,9.18,105.15,80.69,67,83,9.08,VN,1607222661
71,east london,-33.02,27.91,68.25,91,98,10.94,ZA,1607222869
72,khatanga,71.97,102.5,-1.7,91,100,17.34,RU,1607222870
73,georgetown,5.41,100.34,84.2,74,20,4.7,MY,1607222870
74,letlhakeng,-24.09,25.03,65.48,72,98,14.2,BW,1607222870
75,hilo,19.73,-155.09,80.6,65,75,11.41,US,1607222811
76,provideniya,64.38,-173.3,17.13,84,0,5.41,RU,1607222870
77,olafsvik,64.89,-23.71,29.52,98,100,9.06,IS,1607222870
78,carnarvon,-24.87,113.63,84.2,37,72,19.46,AU,1607222870
79,pedernales,18.04,-71.74,76.3,69,0,2.71,DO,1607222870
80,alofi,-19.06,-169.92,84.2,74,100,10.29,NU,1607222871
81,lompoc,34.64,-120.46,53.6,81,1,3.36,US,1607222871
82,vila,42.03,-8.16,37.0,92,35,5.01,PT,1607222871
83,vaini,-21.2,-175.2,80.6,83,90,6.93,TO,1607222871
84,atuona,-9.8,-139.03,78.91,74,1,17.45,PF,1607222871
85,flinders,-34.58,150.86,82.99,36,0,8.99,AU,1607222871
86,barrow,71.29,-156.79,8.6,71,1,18.34,US,1607222871
87,bambous virieux,-20.34,57.76,78.01,88,40,1.12,MU,1607222871
88,aklavik,68.22,-135.01,-2.2,77,2,4.7,CA,1607222872
89,vila franca do campo,37.72,-25.43,53.6,87,40,5.82,PT,1607222872
90,necochea,-38.55,-58.74,50.0,83,0,14.47,AR,1607222872
91,kropotkin,45.44,40.58,27.72,89,27,21.32,RU,1607222872
92,lagoa,39.05,-27.98,59.49,70,83,11.41,PT,1607222872
93,itupiranga,-5.13,-49.33,74.44,92,15,3.2,BR,1607222872
94,vanimo,-2.67,141.3,84.04,76,98,3.18,PG,1607222872
95,lira,2.23,32.91,63.77,90,0,0.67,UG,1607222872
96,saint-philippe,-21.36,55.77,77.0,57,0,4.7,RE,1607222873
97,kaohsiung,22.62,120.31,78.8,57,75,2.24,TW,1607222662
98,ponta do sol,32.67,-17.1,59.0,67,20,9.17,PT,1607222873
99,marystown,47.17,-55.15,44.8,91,100,8.46,CA,1607222767
100,panjakent,39.5,67.61,30.2,58,0,4.7,TJ,1607222873
101,san cristobal,7.77,-72.22,78.8,78,40,2.24,VE,1607222873
102,nizwa,22.93,57.53,63.03,56,0,0.96,OM,1607222622
103,biltine,14.53,20.92,72.57,20,2,12.62,TD,1607222873
104,anadyr,64.75,177.48,26.6,73,75,8.95,RU,1607222874
105,tayoltita,24.08,-105.93,53.83,42,0,6.31,MX,1607222874
106,mount gambier,-37.83,140.77,60.8,67,40,21.92,AU,1607222874
107,jacareacanga,-6.22,-57.75,73.8,96,70,0.58,BR,1607222874
108,caldwell,43.66,-116.69,30.0,74,1,3.36,US,1607222854
109,comodoro rivadavia,-45.87,-67.5,65.66,34,37,5.39,AR,1607222701
110,port augusta,-32.5,137.77,71.6,33,75,19.46,AU,1607222874
111,rio grande,-32.03,-52.1,61.0,72,96,7.2,BR,1607222875
112,zlynka,52.43,31.74,23.0,79,0,15.66,RU,1607222878
113,tralee,52.27,-9.7,43.86,80,99,7.85,IE,1607222878
114,rocha,-34.48,-54.33,45.43,85,0,1.57,UY,1607222878
115,airai,-8.93,125.41,72.57,88,100,2.42,TL,1607222878
116,asyut,27.18,31.18,50.02,64,3,2.64,EG,1607222840
117,winnemucca,40.97,-117.74,30.2,46,1,4.7,US,1607222878
118,vestmannaeyjar,63.44,-20.27,33.04,85,100,13.44,IS,1607222878
119,yatou,37.15,122.38,44.51,54,0,7.78,CN,1607222879
120,wenatchee,47.42,-120.31,33.01,100,90,2.1,US,1607222783
121,murdochville,48.96,-65.5,32.0,98,100,3.36,CA,1607222739
122,sitka,57.05,-135.33,50.0,71,90,11.41,US,1607222879
123,leh,34.17,77.58,13.37,77,93,1.9,IN,1607222879
124,inverness,57.48,-4.22,42.01,93,100,4.12,GB,1607222879
125,khairagarh,26.95,77.82,67.91,40,0,3.89,IN,1607222879
126,lisakovsk,52.54,62.49,-2.07,91,0,1.45,KZ,1607222879
127,hasaki,35.73,140.83,55.0,66,75,9.17,JP,1607222671
128,cherskiy,68.75,161.3,-11.69,81,46,0.76,RU,1607222880
129,rehli,23.63,79.08,68.61,38,0,2.44,IN,1607222880
130,redmond,47.67,-122.12,48.0,59,1,4.29,US,1607222809
131,kimbe,-5.55,150.14,89.58,56,48,6.11,PG,1607222880
132,svetlyy,54.67,20.13,44.6,87,75,15.66,RU,1607222880
133,jumla,29.27,82.18,45.28,54,9,2.04,NP,1607222880
134,malatya,38.5,38.0,26.6,92,40,3.36,TR,1607222881
135,polunochnoye,60.87,60.42,15.13,95,90,5.93,RU,1607222881
136,hambantota,6.12,81.12,77.0,100,20,2.24,LK,1607222881
137,bhatkal,13.97,74.57,80.73,52,65,9.19,IN,1607222881
138,kahului,20.89,-156.47,86.0,51,1,12.75,US,1607222674
139,mongu,-15.25,23.13,68.63,91,100,7.02,ZM,1607222881
140,yulara,-25.24,130.99,86.0,23,99,11.41,AU,1607222881
141,okhotsk,59.38,143.3,-3.77,84,0,17.02,RU,1607222882
142,faanui,-16.48,-151.75,79.86,80,100,17.22,PF,1607222882
143,mareeba,-17.0,145.43,90.0,48,4,8.05,AU,1607222882
144,puerto escondido,15.85,-97.07,78.64,74,63,2.86,MX,1607222882
145,luau,-10.71,22.22,64.63,99,100,4.5,AO,1607222882
146,dunedin,-45.87,170.5,53.01,78,100,31.0,NZ,1607222882
147,pisco,-13.7,-76.22,66.0,88,0,12.75,PE,1607222883
148,upernavik,72.79,-56.15,10.8,89,100,12.15,GL,1607222883
149,beyneu,45.32,55.2,12.2,92,0,10.78,KZ,1607222883
150,kaitangata,-46.28,169.85,55.99,78,100,18.01,NZ,1607222883
151,guerrero negro,27.98,-114.06,58.41,68,65,4.97,MX,1607222883
152,pacific grove,36.62,-121.92,51.8,81,1,1.88,US,1607222883
153,ceske velenice,48.77,14.96,42.01,96,83,5.01,CZ,1607222883
154,akyab,20.15,92.9,73.44,53,0,4.5,MM,1607222884
155,gondanglegi,-7.75,112.01,85.17,71,85,10.89,ID,1607222884
156,raudeberg,61.99,5.14,39.2,65,100,9.17,NO,1607222884
157,yongan,39.7,113.69,19.58,90,72,9.13,CN,1607222884
158,opuwo,-18.06,13.84,61.79,29,1,5.41,NA,1607222884
159,chandur bazar,21.24,77.75,70.25,38,0,4.29,IN,1607222884
160,shellbrook,53.22,-106.4,26.6,79,75,5.82,CA,1607222885
161,tokonou,9.65,-9.78,68.86,62,30,3.8,GN,1607222885
162,komsomolskiy,40.43,71.72,32.0,83,97,0.69,UZ,1607222885
163,touros,-5.2,-35.46,78.8,78,0,10.29,BR,1607222885
164,bonthe,7.53,-12.51,78.6,85,0,5.32,SL,1607222885
165,torbay,47.67,-52.73,46.4,93,75,8.05,CA,1607222885
166,mitsamiouli,-11.38,43.28,80.96,70,30,4.59,KM,1607222886
167,scarborough,54.28,-0.4,39.99,93,100,6.35,GB,1607222886
168,wajima,37.4,136.9,51.8,66,40,6.93,JP,1607222886
169,cidreira,-30.18,-50.21,65.75,72,100,12.12,BR,1607222886
170,kununurra,-15.77,128.73,87.8,70,99,5.82,AU,1607222886
171,tonekabon,36.82,50.87,50.0,100,90,2.24,IR,1607222886
172,cabo san lucas,22.89,-109.91,66.2,59,5,9.17,MX,1607222887
173,victoria,22.29,114.16,66.0,68,0,5.03,HK,1607222656
174,kudahuvadhoo,2.67,72.89,81.91,80,50,14.38,MV,1607222887
175,moron,-34.65,-58.62,63.0,63,0,4.0,AR,1607222887
176,coxim,-18.51,-54.76,76.26,89,99,4.88,BR,1607222789
177,ilulissat,69.22,-51.1,30.2,80,100,5.82,GL,1607222887
178,les cayes,18.2,-73.75,74.66,82,3,3.18,HT,1607222888
179,tautira,-17.73,-149.15,87.8,62,40,6.93,PF,1607222888
180,jurm,36.86,70.83,29.64,70,4,5.32,AF,1607222888
181,katsuura,35.13,140.3,55.99,53,95,7.0,JP,1607222834
182,aloleng,16.13,119.78,85.33,70,0,5.03,PH,1607222888
183,richards bay,-28.78,32.04,70.47,79,0,14.63,ZA,1607222888
184,vardo,70.37,31.11,34.84,85,18,31.59,NO,1607222888
185,pangai,-19.8,-174.35,79.72,84,100,12.66,TO,1607222889
186,ibra,22.69,58.53,63.72,69,0,0.78,OM,1607222837
187,bernalillo,35.05,-106.67,41.0,27,1,4.7,US,1607222889
188,berlevag,70.86,29.09,35.6,82,34,38.45,NO,1607222889
189,porto walter,-8.27,-72.74,71.47,98,100,0.67,BR,1607222889
190,santa lucia,27.91,-15.54,60.01,87,40,9.17,ES,1607222889
191,pitimbu,-7.47,-34.81,78.8,78,20,9.17,BR,1607222889
192,westport,41.14,-73.36,39.0,56,5,17.67,US,1607222886
193,ambulu,-8.35,113.61,82.53,71,98,1.14,ID,1607222890
194,mlonggo,-6.53,110.7,78.8,88,75,4.7,ID,1607222890
195,konevo,62.12,39.32,30.81,97,100,9.42,RU,1607222890
196,sibu,2.3,111.82,80.6,88,40,4.7,MY,1607222890
197,sungaipenuh,-2.08,101.38,78.94,54,79,4.27,ID,1607222890
198,maldonado,-34.67,-54.92,53.6,76,0,3.36,UY,1607222890
199,isiro,2.77,27.62,64.8,95,10,1.66,CD,1607222890
200,kijang,35.24,129.21,48.2,42,0,12.75,KR,1607222768
201,arona,28.1,-16.68,64.99,72,20,9.17,ES,1607222891
202,elban,50.1,136.51,14.72,91,78,6.73,RU,1607222891
203,petropavlovsk-kamchatskiy,53.05,158.65,21.2,92,75,8.95,RU,1607222891
204,macia,-25.03,33.1,66.2,93,76,1.54,MZ,1607222891
205,esna,25.29,32.55,54.46,50,0,5.12,EG,1607222891
206,kruisfontein,-34.0,24.73,62.01,95,94,5.53,ZA,1607222891
207,zunyi,27.69,106.91,40.59,81,100,3.36,CN,1607222892
208,cayenne,4.93,-52.33,75.2,100,40,4.07,GF,1607222892
209,saint-pierre,-21.34,55.48,77.0,57,0,4.7,RE,1607222892
210,elizabeth city,36.29,-76.25,44.01,81,1,8.05,US,1607222624
211,walla walla,46.06,-118.34,26.6,92,90,5.82,US,1607222663
212,salalah,17.02,54.09,69.8,64,0,2.24,OM,1607222892
213,basco,20.45,121.97,77.2,87,100,30.96,PH,1607222892
214,lufkin,31.34,-94.73,48.2,70,40,2.59,US,1607222785
215,mweka,-4.85,21.57,68.02,100,100,3.51,CD,1607222893
216,sao joao da barra,-21.64,-41.05,75.29,90,100,11.25,BR,1607222893
217,ulladulla,-35.35,150.47,77.0,27,0,19.46,AU,1607222893
218,ko samui,9.54,99.94,82.4,69,40,5.82,TH,1607222893
219,ormara,25.21,64.64,76.93,48,0,7.14,PK,1607222893
220,molepolole,-24.41,25.5,75.2,64,0,10.29,BW,1607222893
221,ryotsu,38.08,138.43,50.0,81,75,9.17,JP,1607222893
222,kistelek,46.47,19.98,48.99,82,14,4.0,HU,1607222894
223,avarua,-21.21,-159.78,84.2,79,67,18.34,CK,1607222894
224,panzhihua,26.59,101.71,61.41,50,6,0.18,CN,1607222894
225,iranshahr,27.2,60.68,57.2,41,0,4.7,IR,1607222894
226,bolu,40.67,31.58,40.71,69,39,1.48,TR,1607222894
227,santa rosa,14.31,121.11,90.0,70,75,2.24,PH,1607222662
228,port blair,11.67,92.75,82.26,70,0,15.19,IN,1607222895
229,bulembu,-25.97,31.13,35.6,93,58,2.24,SZ,1607222895
230,vestmanna,62.16,-7.17,35.6,93,100,8.05,FO,1607222895
231,muzhi,65.37,64.67,14.97,93,90,5.79,RU,1607222895
232,ostrovnoy,68.05,39.51,36.72,85,82,23.94,RU,1607222895
233,ilebo,-4.32,20.58,69.08,97,100,2.15,CD,1607222895
234,enumclaw,47.2,-121.99,46.0,62,12,1.01,US,1607222627
235,baruun-urt,46.68,113.28,3.22,85,6,8.59,MN,1607222895
236,tiarei,-17.53,-149.33,87.8,62,40,6.93,PF,1607222896
237,phibun mangsahan,15.24,105.23,75.0,68,0,10.29,TH,1607222896
238,dubrovnik,42.65,18.09,57.2,58,40,18.34,HR,1607222896
239,tolaga bay,-38.37,178.3,64.42,51,61,8.28,NZ,1607222896
240,creel,27.75,-107.63,26.38,95,0,6.4,MX,1607222896
241,ceres,37.59,-120.96,57.2,44,1,4.7,US,1607222896
242,alice springs,-23.7,133.88,89.01,25,0,13.87,AU,1607222896
243,tornio,65.85,24.15,37.4,100,90,9.17,FI,1607222896
244,clyde river,70.47,-68.59,-5.8,83,75,5.82,CA,1607222897
245,kloulklubed,7.04,134.26,84.6,75,32,10.71,PW,1607222897
246,nuzvid,16.78,80.85,73.4,78,20,6.93,IN,1607222897
247,mehamn,71.04,27.85,34.05,87,88,38.61,NO,1607222897
248,tessalit,20.2,1.01,63.52,42,0,4.97,ML,1607222897
249,riyadh,24.69,46.72,71.6,53,40,10.29,SA,1607222881
250,sao lourenco do sul,-31.37,-51.98,61.0,72,66,8.57,BR,1607222897
251,tual,-5.67,132.75,85.21,66,100,2.77,ID,1607222898
252,caravelas,-17.71,-39.25,74.3,87,15,5.91,BR,1607222898
253,harper,4.38,-7.72,77.68,85,3,5.37,LR,1607222898
254,beringovskiy,63.05,179.32,23.11,94,95,3.51,RU,1607222898
255,hobart,-42.88,147.33,59.0,38,91,19.46,AU,1607222604
256,carballo,43.21,-8.69,42.01,87,35,5.39,ES,1607222898
257,talnakh,69.49,88.4,10.4,92,75,4.47,RU,1607222898
258,eyl,7.98,49.82,77.32,71,80,8.99,SO,1607222898
259,stornoway,58.21,-6.39,42.8,87,42,3.36,GB,1607222899
260,delmiro gouveia,-9.39,-38.0,73.92,78,74,7.54,BR,1607222899
261,isangel,-19.55,169.27,84.2,74,75,5.82,VU,1607222899
262,roald,62.58,6.13,36.0,86,98,1.99,NO,1607222899
263,waipawa,-41.41,175.52,64.4,59,100,25.28,NZ,1607222899
264,college,64.86,-147.8,-0.4,70,90,2.82,US,1607222899
265,qaqortoq,60.72,-46.03,30.2,86,99,3.36,GL,1607222899
266,bethel,41.37,-73.41,37.4,59,1,8.05,US,1607222728
267,teberda,43.45,41.74,26.76,81,0,3.76,RU,1607222900
268,panaba,21.28,-88.27,73.2,96,83,5.84,MX,1607222900
269,najran,17.49,44.13,64.4,52,0,4.7,SA,1607222900
270,tres arroyos,-38.37,-60.28,56.52,44,0,13.09,AR,1607222900
271,lasem,-6.69,111.45,85.44,71,79,14.85,ID,1607222900
272,taksimo,56.34,114.88,0.82,82,100,0.85,RU,1607222900
273,gasa,31.5,34.47,57.2,87,20,4.7,PS,1607222900
274,yellowknife,62.46,-114.35,19.4,92,75,5.82,CA,1607222806
275,iquitos,-3.75,-73.25,73.4,94,75,2.26,PE,1607222901
276,sarh,9.14,18.39,68.0,82,0,2.01,TD,1607222901
277,sulphur springs,33.14,-95.6,50.0,53,1,5.12,US,1607222901
278,calamar,10.25,-74.91,80.6,100,40,6.93,CO,1607222901
279,marigot,18.07,-63.08,78.8,78,40,4.7,MF,1607222901
280,betare oya,5.6,14.08,65.93,42,20,2.13,CM,1607222901
281,palana,59.12,159.97,14.09,82,95,5.82,RU,1607222902
282,viedma,-40.81,-63.0,69.01,31,0,1.99,AR,1607222902
283,coquimbo,-29.95,-71.34,55.4,82,0,3.36,CL,1607222902
284,bonoua,5.27,-3.6,80.6,88,20,6.93,CI,1607222902
285,longyearbyen,78.22,15.64,15.8,72,75,13.87,SJ,1607222902
286,castro,-24.79,-50.01,59.38,96,100,13.78,BR,1607222902
287,coihaique,-45.58,-72.07,62.6,55,0,3.36,CL,1607222902
288,meadow lake,34.8,-106.54,41.0,27,1,4.7,US,1607222903
289,narsaq,60.92,-46.05,30.2,86,100,3.36,GL,1607222903
290,nemuro,43.32,145.57,41.0,56,20,4.7,JP,1607222709
291,mirabad,30.44,61.84,43.97,60,68,5.75,AF,1607222903
292,soyo,-6.13,12.37,77.54,87,100,7.67,AO,1607222903
293,san lucas,16.6,-92.72,71.6,73,75,11.41,MX,1607222903
294,coahuayana,18.73,-103.68,74.01,80,93,2.24,MX,1607222903
295,muros,42.78,-9.06,39.2,86,40,5.82,ES,1607222903
296,san patricio,28.02,-97.52,53.6,66,90,16.11,US,1607222904
297,leningradskiy,69.38,178.42,10.92,88,10,6.69,RU,1607222904
298,majene,-3.54,118.97,88.5,57,52,5.57,ID,1607222904
299,margate,51.38,1.39,44.01,81,99,3.0,GB,1607222904
300,dedougou,12.47,-3.47,73.09,23,0,3.83,BF,1607222904
301,broken hill,-31.95,141.43,69.8,32,0,18.34,AU,1607222904
302,west bay,19.37,-81.42,80.01,100,20,1.12,KY,1607222904
303,talcahuano,-36.72,-73.12,53.6,93,90,5.82,CL,1607222904
304,bilibino,68.05,166.44,2.95,91,100,1.86,RU,1607222905
305,shawville,45.6,-76.48,27.0,92,11,5.01,CA,1607222905
306,yar-sale,66.83,70.83,11.61,95,96,9.1,RU,1607222905
307,aguas vermelhas,-15.75,-41.46,66.83,96,66,4.59,BR,1607222905
308,poum,-20.23,164.02,78.22,72,8,1.52,NC,1607222905
309,linxia,35.6,103.21,27.09,86,100,3.42,CN,1607222747
310,gladstone,-23.85,151.25,89.6,49,26,13.87,AU,1607222905
311,souillac,-20.52,57.52,73.4,88,40,1.12,MU,1607222905
312,nambucca heads,-30.65,153.0,80.6,65,100,9.17,AU,1607222906
313,silvania,-16.66,-48.61,75.2,88,40,6.93,BR,1607222906
314,simbahan,6.3,120.58,83.61,68,96,1.59,PH,1607222906
315,tateyama,34.98,139.87,57.2,62,40,12.75,JP,1607222906
316,tiksi,71.69,128.87,-12.26,88,54,5.64,RU,1607222906
317,pangody,65.85,74.49,6.12,95,59,9.31,RU,1607222906
318,tabuk,17.42,121.44,81.82,79,60,6.91,PH,1607222906
319,port hardy,50.7,-127.42,50.0,66,90,17.22,CA,1607222907
320,grand gaube,-20.01,57.66,78.01,77,27,3.0,MU,1607222907
321,changping,40.22,116.22,39.0,67,0,4.47,CN,1607222907
322,ivanovka,42.89,75.08,12.2,92,90,2.24,KG,1607222907
323,college place,46.05,-118.39,26.6,92,90,5.82,US,1607222907
324,norman wells,65.28,-126.83,10.4,85,75,2.24,CA,1607222907
325,krasnoselkup,65.7,82.47,10.26,96,93,11.61,RU,1607222907
326,herat,34.5,62.0,28.4,92,40,4.54,AF,1607222908
327,zyryanka,65.75,150.85,-26.5,84,0,1.7,RU,1607222908
328,rehoboth,-23.32,17.08,59.27,44,0,3.76,NA,1607222908
329,bahia blanca,-38.72,-62.27,67.35,28,0,14.36,AR,1607222908
330,arraial do cabo,-22.97,-42.03,74.77,91,100,15.3,BR,1607222908
331,awjilah,29.11,21.29,61.66,32,0,17.34,LY,1607222908
332,hoopstad,-27.83,25.91,63.05,80,8,8.21,ZA,1607222909
333,puertollano,38.69,-4.11,37.0,89,74,9.62,ES,1607222909
334,carnot,4.94,15.87,67.87,42,50,0.51,CF,1607222909
335,buraydah,26.33,43.98,55.4,87,0,4.7,SA,1607222909
336,paramonga,-10.67,-77.83,66.69,86,99,6.55,PE,1607222909
337,san quintin,30.48,-115.95,56.91,54,99,1.86,MX,1607222909
338,lengshuitan,26.41,111.6,52.29,57,30,4.18,CN,1607222909
339,zhigansk,66.77,123.37,-12.75,89,100,26.33,RU,1607222910
340,shimoda,34.67,138.95,57.2,62,40,12.75,JP,1607222910
341,shingu,33.73,135.98,60.8,38,20,8.05,JP,1607222910
342,chardara,41.25,67.97,23.22,93,0,9.17,KZ,1607222910
343,ati,13.22,18.34,74.17,19,0,7.31,TD,1607222910
344,severo-kurilsk,50.68,156.12,30.18,90,80,26.64,RU,1607222910
345,riohacha,11.54,-72.91,76.57,87,12,10.47,CO,1607222910
346,acapulco,16.86,-99.89,82.4,78,40,6.93,MX,1607222911
347,kisanga,-7.44,37.7,71.78,87,10,1.54,TZ,1607222911
348,aiquile,-18.2,-65.18,55.4,83,100,3.38,BO,1607222911
349,burnie,-41.07,145.92,55.0,64,73,15.01,AU,1607222911
350,valparaiso,-33.04,-71.63,55.4,93,90,3.36,CL,1607222694
351,port elizabeth,-33.92,25.57,66.2,93,90,12.75,ZA,1607222911
352,samarai,-10.62,150.67,85.48,72,33,13.29,PG,1607222911
353,chebsara,59.2,38.84,23.14,96,4,10.58,RU,1607222911
354,dabat,12.98,37.77,50.11,89,1,3.94,ET,1607222912
355,shimsk,58.21,30.71,32.52,94,100,12.44,RU,1607222912
356,codrington,-38.27,141.97,52.61,84,99,16.28,AU,1607222912
357,susanville,40.42,-120.65,34.0,64,1,2.35,US,1607222711
358,yerbogachen,61.28,108.01,8.26,94,100,17.4,RU,1607222791
359,lakota,5.85,-5.69,70.86,99,48,3.11,CI,1607222912
360,veraval,20.9,70.37,75.74,48,0,7.25,IN,1607222912
361,sibolga,1.74,98.78,85.37,58,100,2.33,ID,1607222913
362,sao filipe,14.9,-24.5,75.4,76,37,11.79,CV,1607222913
363,kirakira,-10.45,161.92,81.19,79,81,3.89,SB,1607222913
364,wewak,-3.55,143.63,85.06,69,91,4.99,PG,1607222913
365,bosaso,11.28,49.18,74.52,76,52,1.43,SO,1607222686
366,koundara,12.48,-13.3,72.5,33,74,3.94,GN,1607222913
367,tabou,4.42,-7.35,77.36,86,11,5.17,CI,1607222913
368,vuktyl,63.86,57.31,14.94,96,100,12.55,RU,1607222914
369,sorland,67.67,12.69,38.21,74,54,21.14,NO,1607222914
370,tahta,26.77,31.5,49.03,73,0,1.41,EG,1607222914
371,esterhazy,50.65,-102.08,33.8,74,10,8.05,CA,1607222914
372,gat,31.61,34.76,55.99,100,0,7.49,IL,1607222704
373,dubbo,-32.25,148.62,77.0,38,0,17.22,AU,1607222757
374,ostersund,63.18,14.64,32.0,98,100,4.7,SE,1607222915
375,mossendjo,-2.95,12.73,69.69,99,100,1.48,CG,1607222915
376,novoagansk,61.94,76.66,5.61,94,17,9.62,RU,1607222915
377,nefteyugansk,61.1,72.6,6.8,84,0,8.95,RU,1607222915
378,ust-kulom,61.69,53.69,16.99,97,100,6.38,RU,1607222915
379,eureka,40.8,-124.16,52.0,81,90,7.05,US,1607222915
380,prainha,-1.8,-53.48,76.6,83,10,3.53,BR,1607222915
381,hay river,60.82,-115.8,32.0,91,100,9.17,CA,1607222916
382,paamiut,61.99,-49.67,32.18,95,100,12.12,GL,1607222916
383,urusha,54.05,122.9,6.69,86,0,1.57,RU,1607222916
384,skelleftea,64.75,20.95,37.4,100,100,3.36,SE,1607222916
385,kidal,18.44,1.41,68.76,34,46,8.23,ML,1607222916
386,victor harbor,-35.57,138.62,64.0,68,98,11.01,AU,1607222740
387,san luis,-33.3,-66.34,63.03,43,0,11.79,AR,1607222917
388,ranong,9.97,98.63,80.6,74,75,1.12,TH,1607222917
389,anchorage,61.22,-149.9,1.99,84,20,3.36,US,1607222917
390,kutum,14.2,24.67,58.1,31,50,5.88,SD,1607222917
391,vila velha,-20.33,-40.29,78.8,83,90,6.93,BR,1607222917
392,pytalovo,57.07,27.91,35.19,87,98,13.58,RU,1607222917
393,tilichiki,60.47,166.1,13.06,98,100,8.55,RU,1607222917
394,cockburn town,21.46,-71.14,78.96,75,52,7.99,TC,1607222855
395,batagay-alyta,67.8,130.41,-26.48,82,36,2.66,RU,1607222918
396,manga,11.66,-1.07,71.67,26,0,0.94,BF,1607222918
397,saint george,37.1,-113.58,46.4,15,1,1.59,US,1607222704
398,payo,-3.75,103.64,84.11,70,70,5.95,ID,1607222918
399,channel-port aux basques,47.57,-59.14,45.19,95,100,16.58,CA,1607222659
400,pervomayskiy,53.25,40.29,19.18,84,0,5.84,RU,1607222919
401,keetmanshoop,-26.58,18.13,64.74,38,0,5.41,NA,1607222919
402,mangan,27.52,88.53,64.45,30,8,1.63,IN,1607222919
403,warrington,53.39,-2.58,41.0,93,100,2.24,GB,1607222919
404,saint-georges,12.06,-61.75,78.8,88,20,5.82,GD,1607222919
405,klaksvik,62.23,-6.59,35.6,93,100,8.05,FO,1607222919
406,havre-saint-pierre,50.23,-63.6,30.2,100,90,11.41,CA,1607222919
407,aksarka,66.56,67.8,11.16,94,100,12.19,RU,1607222920
408,axim,4.87,-2.24,77.95,85,58,5.86,GH,1607222920
409,leshukonskoye,64.9,45.76,31.03,97,100,10.89,RU,1607222920
410,westerlo,51.09,4.92,30.99,92,74,3.36,BE,1607222920
411,honiara,-9.43,159.95,87.8,66,20,8.05,SB,1607222788
412,tura,25.52,90.22,70.7,60,0,0.25,IN,1607222920
413,farafangana,-22.82,47.83,73.35,80,95,5.46,MG,1607222920
414,lagos,6.58,3.75,77.14,92,86,4.74,NG,1607222902
415,lima,-12.04,-77.03,66.2,88,75,11.41,PE,1607222659
416,djougou,9.71,1.67,70.66,33,95,1.7,BJ,1607222921
417,yumen,40.28,97.2,18.1,92,100,6.02,CN,1607222921
418,asfi,32.3,-9.24,56.62,65,6,7.52,MA,1607222921
419,lakeway,30.36,-97.98,48.99,85,83,3.38,US,1607222921
420,harwich,51.94,1.28,39.0,84,96,1.99,GB,1607222921
421,xai-xai,-25.05,33.64,66.87,88,24,2.42,MZ,1607222921
422,agropoli,40.35,15.0,62.01,79,76,5.99,IT,1607222922
423,sioux lookout,50.1,-91.92,17.6,92,5,3.36,CA,1607222922
424,nsanje,-16.92,35.26,74.23,91,100,4.32,MW,1607222922
425,husavik,66.04,-17.34,5.0,71,0,3.36,IS,1607222922
426,okakarara,-20.58,17.43,66.38,33,72,8.95,NA,1607222922
427,tsiroanomandidy,-18.77,46.03,71.31,83,100,4.0,MG,1607222922
428,kastamonu,41.5,33.67,35.47,86,0,0.69,TR,1607222922
429,santa catalina,9.33,122.86,84.2,79,90,4.7,PH,1607222922
430,daru,-9.08,143.21,86.0,71,14,9.48,PG,1607222923
431,sumenep,-7.02,113.87,84.97,73,81,11.86,ID,1607222923
432,beaverlodge,55.22,-119.44,26.6,92,90,2.24,CA,1607222923
433,lesosibirsk,58.24,92.48,6.84,94,96,7.16,RU,1607222923
434,uga,5.94,7.08,71.85,99,76,3.18,NG,1607222923
435,okato,-39.2,173.88,64.99,55,100,8.01,NZ,1607222923
436,chara,56.91,118.26,-2.58,78,98,3.0,RU,1607222923
437,aykhal,66.0,111.5,12.2,92,90,8.95,RU,1607222923
438,quang ngai,15.12,108.8,68.76,89,100,6.89,VN,1607222924
439,bubaque,11.28,-15.83,80.4,66,4,13.76,GW,1607222924
440,waitati,-45.75,170.57,53.01,78,100,31.0,NZ,1607222924
441,kopargaon,19.88,74.48,67.87,38,4,6.38,IN,1607222924
442,fairbanks,64.84,-147.72,-0.4,70,90,2.77,US,1607222768
443,stykkisholmur,65.08,-22.73,23.97,97,100,5.48,IS,1607222924
444,atar,20.52,-13.05,64.96,51,88,10.96,MR,1607222925
445,orsta,62.2,6.13,36.0,78,95,3.0,NO,1607222925
446,luanda,-8.84,13.23,75.74,84,100,7.16,AO,1607222925
447,dingle,11.0,122.67,84.45,78,89,8.88,PH,1607222925
448,ossora,59.24,163.07,13.73,90,100,4.7,RU,1607222925
449,kaili,-3.46,120.21,82.65,64,96,2.64,ID,1607222925
450,plymouth,41.83,-70.83,37.4,93,90,23.04,US,1607222876
451,saint-joseph,-21.37,55.62,77.0,57,0,4.7,RE,1607222925
452,moranbah,-22.0,148.05,99.64,17,16,6.06,AU,1607222926
453,veles,41.72,21.78,35.6,93,75,2.24,MK,1607222926
454,conceicao do araguaia,-8.26,-49.26,75.63,87,81,0.47,BR,1607222926
455,siavonga,-16.54,28.71,75.76,79,98,10.2,ZM,1607222926
456,yarovoye,52.93,78.58,-3.96,90,88,3.04,RU,1607222926
457,stryn,61.9,6.72,32.0,88,90,1.99,NO,1607222927
458,laguna,38.42,-121.42,53.01,57,1,5.82,US,1607222927
459,chern,53.45,36.91,22.05,76,0,9.51,RU,1607222927
460,buala,-8.14,159.59,83.62,77,86,2.62,SB,1607222927
461,vredendal,-31.67,18.5,58.32,84,0,3.31,ZA,1607222927
462,banda aceh,5.56,95.32,74.73,93,100,4.47,ID,1607222927
463,todos santos,23.45,-110.22,68.0,51,0,4.0,MX,1607222927
464,huarmey,-10.07,-78.15,67.66,83,100,7.09,PE,1607222927
465,iqaluit,63.75,-68.51,14.0,78,90,11.41,CA,1607222928
466,kalmunai,7.42,81.82,80.35,81,34,4.85,LK,1607222928
467,hobyo,5.35,48.53,78.31,76,1,8.3,SO,1607222928
468,jijiga,9.35,42.8,59.81,64,0,1.54,ET,1607222928
469,quatre cocos,-20.21,57.76,78.01,88,40,1.12,MU,1607222928
470,mackenzie,55.3,-123.17,35.6,80,90,5.82,CA,1607222928
471,kwinana,-32.25,115.77,75.0,46,0,5.82,AU,1607222929
472,antofagasta,-23.65,-70.4,62.6,82,20,10.29,CL,1607222912
473,mazatlan,23.22,-106.42,69.01,48,5,10.49,MX,1607222929
474,sorong,-0.88,131.25,85.78,71,65,6.78,ID,1607222823
475,luderitz,-26.65,15.16,58.66,90,53,12.12,NA,1607222929
476,napa,38.48,-122.33,53.01,41,54,3.04,US,1607222808
477,la ronge,55.1,-105.28,28.4,86,100,3.36,CA,1607222930
478,osypenko,46.91,36.83,32.0,25,0,18.99,UA,1607222930
479,bilokurakyne,49.53,38.73,19.33,86,0,11.54,UA,1607222930
480,lasa,46.62,10.7,42.01,86,90,31.09,IT,1607222930
481,omboue,-1.57,9.26,74.82,89,79,1.7,GA,1607222930
482,oistins,13.07,-59.53,78.8,78,20,10.29,BB,1607222930
483,mount isa,-20.73,139.5,102.2,20,40,14.99,AU,1607222930
484,nakamura,32.98,132.93,62.47,48,0,1.48,JP,1607222930
485,lavrentiya,65.58,-171.0,16.57,83,0,4.43,RU,1607222931
486,colares,38.8,-9.45,51.01,81,9,5.01,PT,1607222931
487,camopi,3.17,-52.32,72.37,97,74,1.86,GF,1607222931
488,namibe,-15.2,12.15,63.97,80,12,4.43,AO,1607222931
489,hualmay,-11.1,-77.61,66.83,85,100,6.29,PE,1607222931
490,nizhnevartovsk,60.93,76.55,15.8,92,90,6.71,RU,1607222888
491,ustikolina,43.58,18.79,55.4,62,75,14.99,BA,1607222931
492,meulaboh,4.14,96.13,79.45,78,100,3.98,ID,1607222931
493,morro bay,35.37,-120.85,55.0,89,85,2.44,US,1607222817
494,khasan,42.43,130.64,33.15,76,53,4.36,RU,1607222932
495,jibuti,11.5,42.5,77.0,83,40,6.93,DJ,1607222932
496,portland,45.52,-122.68,45.0,60,90,12.75,US,1607222452
497,puno,-15.83,-70.03,45.88,76,100,5.08,PE,1607222932
498,mungaa,-4.97,34.88,59.72,95,0,5.68,TZ,1607222932
499,bardiyah,31.76,25.09,60.62,61,0,11.77,LY,1607222932
500,vostok,46.49,135.88,16.65,91,23,2.77,RU,1607222933
501,itoman,26.12,127.67,69.8,88,75,19.46,JP,1607222933
502,roma,43.21,-75.46,33.8,74,90,11.41,US,1607222695
503,innisfail,-17.53,146.03,83.37,58,0,9.06,AU,1607222933
504,seoul,37.57,126.98,44.6,56,1,2.26,KR,1607222933
505,puerto madryn,-42.77,-65.04,65.8,49,14,14.45,AR,1607222678
506,ponta delgada,37.73,-25.67,53.6,87,40,5.82,PT,1607222933
507,changli,39.7,119.15,34.0,46,21,7.07,CN,1607222933
508,lerum,57.77,12.27,39.99,93,0,3.36,SE,1607222934
509,benghazi,32.12,20.07,65.12,48,0,30.76,LY,1607222934
510,shelburne,44.08,-80.2,25.0,91,95,11.5,CA,1607222637
511,linjiang,41.81,126.91,29.97,84,60,7.05,CN,1607222934
512,lebork,54.54,17.75,45.0,93,95,10.29,PL,1607222934
513,prieska,-29.66,22.75,75.38,25,5,6.8,ZA,1607222934
514,ust-nera,64.57,143.2,-27.38,75,55,3.27,RU,1607222934
515,brae,60.4,-1.35,42.8,87,89,13.87,GB,1607222934
516,skrunda,56.68,22.02,42.8,87,100,12.75,LV,1607222935
517,hami,42.8,93.45,25.32,77,86,1.59,CN,1607222935
518,bombay,19.01,72.85,75.2,44,20,3.36,IN,1607222935
519,lorengau,-2.02,147.27,86.9,66,37,9.84,PG,1607222935
520,kathmandu,27.72,85.32,50.0,93,20,2.24,NP,1607222935
521,ozark,37.02,-93.21,44.01,85,0,5.35,US,1607222935
522,saint-augustin,51.23,-58.65,30.99,94,100,1.03,CA,1607222935
523,sedro-woolley,48.5,-122.24,48.99,70,1,5.03,US,1607222897
524,ejido,8.55,-71.24,65.79,64,99,3.71,VE,1607222936
525,grindavik,63.84,-22.43,35.6,74,90,23.04,IS,1607222936
526,mega,4.05,38.3,59.52,79,0,4.25,ET,1607222936
527,villazon,-22.09,-65.59,48.76,72,100,12.68,BO,1607222936
528,thinadhoo,0.53,72.93,82.35,79,80,18.07,MV,1607222936
529,jos,9.92,8.9,63.3,30,22,3.22,NG,1607222936
530,plyussa,58.43,29.37,35.1,87,100,10.29,RU,1607222936
531,briancon,44.9,6.65,34.0,95,100,1.45,FR,1607222937
532,menongue,-14.66,17.69,62.35,70,100,4.76,AO,1607222937
533,bridlington,54.08,-0.19,39.2,100,100,4.7,GB,1607222937
534,karasuk,53.74,78.04,-1.35,91,100,4.14,RU,1607222937
535,kieta,-6.22,155.63,85.73,63,93,4.36,PG,1607222937
536,morgan city,29.7,-91.21,51.8,81,90,4.7,US,1607222933
537,inuvik,68.35,-133.72,-2.2,77,4,4.7,CA,1607222937
538,hella,67.2,14.43,34.0,92,75,9.17,NO,1607222937
539,derzhavinsk,51.1,66.32,-5.87,90,31,8.77,KZ,1607222938
540,juba,4.85,31.58,75.7,54,6,1.59,SS,1607222938
541,promyshlennaya,54.92,85.64,-5.8,76,40,4.47,RU,1607222938
542,arlit,18.74,7.39,75.45,18,1,7.52,NE,1607222938
543,mogadishu,2.04,45.34,78.03,82,7,9.31,SO,1607222938
544,dhandhuka,22.37,71.98,73.78,33,0,6.93,IN,1607222938
545,ruidoso,33.33,-105.67,37.4,34,1,3.36,US,1607222667
546,chupaca,-12.07,-75.28,52.3,73,98,3.62,PE,1607222939
547,neenah,44.19,-88.46,27.0,58,75,5.14,US,1607222939
548,faya,18.39,42.45,53.6,87,58,3.47,SA,1607222939
549,kihei,20.79,-156.47,86.0,51,1,12.75,US,1607222939
550,beihai,21.48,109.1,62.53,60,10,6.91,CN,1607222939
551,jalu,29.03,21.55,61.65,32,0,16.8,LY,1607222939
552,dawlatabad,36.41,64.91,34.74,71,14,4.79,AF,1607222940
553,ayagoz,47.97,80.44,9.3,93,2,6.33,KZ,1607222940
554,punta,8.99,125.34,80.74,84,100,0.45,PH,1607222940
555,boende,-0.22,20.87,70.25,98,89,2.62,CD,1607222940
556,eenhana,-17.47,16.33,65.98,39,24,5.48,NA,1607222940
557,loukhi,66.08,33.04,36.61,95,100,9.24,RU,1607222940
558,iberia,29.95,-91.75,51.01,93,1,3.36,US,1607222940
559,ambilobe,-13.2,49.05,75.16,86,8,3.53,MG,1607222902
560,bloomsburg,41.0,-76.45,37.0,64,39,10.0,US,1607222941
561,qasigiannguit,68.82,-51.19,30.2,80,100,5.82,GL,1607222941
562,port angeles,48.12,-123.43,48.2,87,40,1.83,US,1607222914
563,xining,36.62,101.77,21.7,83,100,0.51,CN,1607222941
564,evensk,61.95,159.23,6.21,88,100,9.31,RU,1607222941
565,shaunavon,49.65,-108.42,30.2,68,41,13.87,CA,1607222941
566,havoysund,71.0,24.66,33.8,64,100,39.15,NO,1607222941
567,neringa,55.37,21.06,44.6,87,75,15.66,LT,1607222942
568,mogzon,51.74,111.96,1.94,88,58,12.06,RU,1607222942
569,lazaro cardenas,17.96,-102.2,76.12,75,10,3.09,MX,1607222942
570,marawi,8.0,124.29,82.99,82,92,3.0,PH,1607222942
571,thoen,17.61,99.22,72.0,80,1,1.36,TH,1607222942
572,saldanha,-33.01,17.94,57.2,82,63,6.93,ZA,1607222942
573,gberia fotombu,9.88,-11.17,69.04,86,0,2.59,SL,1607222942
574,rantoul,40.31,-88.16,30.0,86,1,6.33,US,1607222942
575,dobra,44.78,25.72,39.2,100,90,16.11,RO,1607222943
576,mecca,21.43,39.83,69.66,57,0,5.97,SA,1607222943
577,quelimane,-17.88,36.89,78.8,83,75,3.36,MZ,1607222943
578,saint-francois,46.42,3.91,30.0,100,90,2.24,FR,1607222943
579,novobirilyussy,56.95,90.67,6.33,94,100,8.55,RU,1607222943
580,qianjiang,30.42,112.89,41.61,76,100,0.63,CN,1607222943
581,boguchany,58.38,97.45,5.61,91,100,9.15,RU,1607222943
582,nome,64.5,-165.41,6.8,65,1,10.29,US,1607222944
583,krasnomayskiy,57.62,34.41,26.98,95,12,9.01,RU,1607222944
584,kapit,2.02,112.93,84.0,70,98,2.33,MY,1607222944
585,moletai,55.23,25.42,35.01,84,90,19.46,LT,1607222944
586,kefamenanu,-9.45,124.48,85.15,66,100,8.59,ID,1607222944
587,wahiawa,21.5,-158.02,84.2,69,90,8.05,US,1607222944
588,constitucion,-35.33,-72.42,53.6,83,21,4.09,CL,1607222944
589,palauig,15.44,119.9,85.6,66,8,5.12,PH,1607222945
590,asau,46.43,26.4,36.0,22,100,3.62,RO,1607222945
591,nelson bay,-32.72,152.15,88.0,35,4,21.92,AU,1607222945
592,galle,6.04,80.22,81.46,77,52,1.41,LK,1607222913
593,trairi,-3.28,-39.27,80.08,79,100,11.7,BR,1607222945
594,tamworth,52.63,-1.7,37.4,93,90,4.7,GB,1607222945
595,kupang,-10.17,123.58,84.2,79,40,3.36,ID,1607222945
596,wajir,1.75,40.06,75.29,78,0,11.16,KE,1607222945
597,marsa matruh,31.35,27.25,61.72,49,0,8.99,EG,1607222946
598,avera,33.19,-82.53,42.01,74,1,4.7,US,1607222946
599,hervey bay,-25.3,152.85,86.0,55,95,26.4,AU,1607222946
600,rovaniemi,66.5,25.72,33.8,100,90,8.05,FI,1607222946
601,shahreza,32.03,51.88,40.8,77,98,2.68,IR,1607222946
602,trinidad,-14.83,-64.9,70.81,87,99,4.99,BO,1607222670
603,savannah bight,16.45,-85.85,78.01,96,100,8.25,HN,1607222946
604,kashi,39.45,75.98,28.4,68,40,2.24,CN,1607222946
605,strathmore,51.05,-113.39,35.01,79,6,6.93,CA,1607222947
606,tigil,57.8,158.67,13.57,90,100,4.83,RU,1607222947
607,belaya gora,68.53,146.42,-29.2,85,0,3.67,RU,1607222947
608,sept-iles,50.2,-66.38,28.4,74,100,5.82,CA,1607222947
609,jesus carranza,17.43,-95.03,69.39,87,100,6.71,MX,1607222947
